{
    "routeName": "Reitti",
    "endLocation": {
      "name": "Konetalo",
      "address": "Korkeakoulunkatu 6",
      "postalCode": "33720",
      "city": "Tampere",
      "lat": "61.44869322268551",
      "lon": "23.859398648697006",
      "endTime": "12:00"
    },
    "startLocation": {
      "name": "Tampere-talo",
      "address": "Yliopistonkatu 55",
      "postalCode": "33100",
      "city": "Tampere",
      "lat": "61.49592890697636",
      "lon": "23.78160833411916",
      "departureTime": "9:00"
    },
    "data": [
      {
        "name": "Tietotalo",
        "address": "Korkeakoulunkatu 1",
        "postalCode": "33720",
        "city": "Tampere",
        "standardPickup": "no",
        "lat": "61.44979009607303",
        "lon": "23.85576846213571"
      },
      {
        "name": "Keskustori",
        "address": "Keskustori 11",
        "postalCode": "33200",
        "city": "Tampere",
        "standardPickup": "no",
        "lat": "61.44979009607303",
        "lon": "23.7603435425884"
      }
    ]
  }